{"results":[{"fsq_id":"4bb373ee2397b7139c1b38b3","categories":[{"id":13018,"name":"Pub","icon":{"prefix":"https://ss3.4sqi.net/img/categories_v2/nightlife/pub_","suffix":".png"}}],"chains":[],"distance":698,"geocodes":{"main":{"latitude":46.043269,"longitude":14.504577}},"link":"/v3/places/4bb373ee2397b7139c1b38b3","location":{"address":"Eipprova ul. 7","country":"SI","formatted_address":"Eipprova ul. 7, 1000 Ljubljana","locality":"Ljubljana","postcode":"1000","region":"Ljubljana"},"name":"Sax Pub & Sax Hostel","related_places":{},"timezone":"Europe/Ljubljana"},{"fsq_id":"5a8c712d67e5f20271223d42","categories":[{"id":13018,"name":"Pub","icon":{"prefix":"https://ss3.4sqi.net/img/categories_v2/nightlife/pub_","suffix":".png"}}],"chains":[],"distance":863,"geocodes":{"main":{"latitude":46.044141,"longitude":14.506556}},"link":"/v3/places/5a8c712d67e5f20271223d42","location":{"address":"15 Grudnovo nabrežje","country":"SI","cross_street":"","formatted_address":"15 Grudnovo nabrežje, 1000 Ljubljana","locality":"Ljubljana","postcode":"1000","region":"Ljubljana"},"name":"LajBah","related_places":{},"timezone":"Europe/Ljubljana"},{"fsq_id":"4d35f5213982224b554e7f25","categories":[{"id":13018,"name":"Pub","icon":{"prefix":"https://ss3.4sqi.net/img/categories_v2/nightlife/pub_","suffix":".png"}}],"chains":[],"distance":953,"geocodes":{"main":{"latitude":46.044016,"longitude":14.508584}},"link":"/v3/places/4d35f5213982224b554e7f25","location":{"address":"Prijateljeva ulica 2","country":"SI","formatted_address":"Prijateljeva ulica 2, 1000 Ljubljana","locality":"Ljubljana","postcode":"1000","region":"Ljubljana"},"name":"Prulček Bar","related_places":{},"timezone":"Europe/Ljubljana"},{"fsq_id":"547c623a498e1e48fde79685","categories":[{"id":19013,"name":"Hostel","icon":{"prefix":"https://ss3.4sqi.net/img/categories_v2/travel/hostel_","suffix":".png"}}],"chains":[],"distance":690,"geocodes":{"main":{"latitude":46.043541,"longitude":14.503586}},"link":"/v3/places/547c623a498e1e48fde79685","location":{"address":"Gradaška ulica 10","country":"SI","cross_street":"","formatted_address":"Gradaška ulica 10, 1000 Ljubljana","locality":"Ljubljana","postcode":"1000","region":"Ljubljana"},"name":"Hostel Vrba","related_places":{},"timezone":"Europe/Ljubljana"},{"fsq_id":"58fc805e9ec3990cbc1e73b5","categories":[{"id":19013,"name":"Hostel","icon":{"prefix":"https://ss3.4sqi.net/img/categories_v2/travel/hostel_","suffix":".png"}}],"chains":[],"distance":788,"geocodes":{"main":{"latitude":46.043365,"longitude":14.493605}},"link":"/v3/places/58fc805e9ec3990cbc1e73b5","location":{"address":"Teslova ulica 23","country":"SI","cross_street":"","formatted_address":"Teslova ulica 23, 1000 Ljubljana","locality":"Ljubljana","postcode":"1000","region":"Ljubljana"},"name":"Vila Teslova","related_places":{},"timezone":"Europe/Ljubljana"},{"fsq_id":"5461fbfb498e1f85910ce55e","categories":[{"id":13007,"name":"Beer Garden","icon":{"prefix":"https://ss3.4sqi.net/img/categories_v2/nightlife/beergarden_","suffix":".png"}}],"chains":[],"distance":892,"geocodes":{"main":{"latitude":46.04494,"longitude":14.505412}},"link":"/v3/places/5461fbfb498e1f85910ce55e","location":{"address":"Krakovski nasip 12","country":"SI","cross_street":"","formatted_address":"Krakovski nasip 12, 1000 Ljubljana","locality":"Ljubljana","postcode":"1000","region":"Ljubljana"},"name":"Krakovc","related_places":{},"timezone":"Europe/Ljubljana"},{"fsq_id":"4bdc7c32c79cc928a3c486e9","categories":[{"id":13018,"name":"Pub","icon":{"prefix":"https://ss3.4sqi.net/img/categories_v2/nightlife/pub_","suffix":".png"}}],"chains":[],"distance":663,"geocodes":{"main":{"latitude":46.043289,"longitude":14.50351}},"link":"/v3/places/4bdc7c32c79cc928a3c486e9","location":{"address":"Eipprova 19","country":"SI","formatted_address":"Eipprova 19, Ljubljana","locality":"Ljubljana","region":"Ljubljana"},"name":"Šank pub Anika","related_places":{},"timezone":"Europe/Ljubljana"},{"fsq_id":"4bd5b7504e32d13aa548c180","categories":[{"id":13018,"name":"Pub","icon":{"prefix":"https://ss3.4sqi.net/img/categories_v2/nightlife/pub_","suffix":".png"}}],"chains":[],"distance":216,"geocodes":{"main":{"latitude":46.039739,"longitude":14.499372}},"link":"/v3/places/4bd5b7504e32d13aa548c180","location":{"country":"SI","cross_street":"","formatted_address":""},"name":"Bar Pri Kugli","related_places":{},"timezone":"Europe/Ljubljana"},{"fsq_id":"4dc3d06f52b1e8f9f7a9fc6c","categories":[{"id":13016,"name":"Lounge","icon":{"prefix":"https://ss3.4sqi.net/img/categories_v2/nightlife/default_","suffix":".png"}}],"chains":[],"distance":241,"geocodes":{"main":{"latitude":46.040011,"longitude":14.499876}},"link":"/v3/places/4dc3d06f52b1e8f9f7a9fc6c","location":{"address":"Devinova 1","country":"SI","formatted_address":"Devinova 1, Ljubljana","locality":"Ljubljana","region":"Ljubljana"},"name":"Kavarna Trnovo","related_places":{},"timezone":"Europe/Ljubljana"},{"fsq_id":"4bab87bef964a520d4b03ae3","categories":[{"id":13018,"name":"Pub","icon":{"prefix":"https://ss3.4sqi.net/img/categories_v2/nightlife/pub_","suffix":".png"}}],"chains":[],"distance":568,"geocodes":{"main":{"latitude":46.039253,"longitude":14.507087}},"link":"/v3/places/4bab87bef964a520d4b03ae3","location":{"country":"SI","cross_street":"","formatted_address":""},"name":"Pierrot Pub","related_places":{},"timezone":"Europe/Ljubljana"}],"context":{"geo_bounds":{"circle":{"center":{"latitude":46.03784,"longitude":14.50001},"radius":1000}}}}