{"results":[{"fsq_id":"594a9cd5a879214d973b3aae","categories":[{"id":13025,"name":"Wine Bar","icon":{"prefix":"https://ss3.4sqi.net/img/categories_v2/food/winery_","suffix":".png"}}],"chains":[],"distance":322,"geocodes":{"main":{"latitude":46.04704,"longitude":14.505326}},"link":"/v3/places/594a9cd5a879214d973b3aae","location":{"address":"Breg 10","country":"SI","cross_street":"","formatted_address":"Breg 10, 1000 Ljubljana","locality":"Ljubljana","postcode":"1000","region":"Ljubljana"},"name":"Wine bar Suklje","related_places":{},"timezone":"Europe/Ljubljana"},{"fsq_id":"4e246c6baeb70263954c4e2c","categories":[{"id":19014,"name":"Hotel","icon":{"prefix":"https://ss3.4sqi.net/img/categories_v2/travel/hotel_","suffix":".png"}}],"chains":[],"distance":312,"geocodes":{"main":{"latitude":46.049139,"longitude":14.502013}},"link":"/v3/places/4e246c6baeb70263954c4e2c","location":{"address":"Slovenska cesta 15","country":"SI","formatted_address":"Slovenska cesta 15, 1000 Ljubljana","locality":"Ljubljana","postcode":"1000","region":"Ljubljana"},"name":"Hotel Cubo","related_places":{},"timezone":"Europe/Ljubljana"},{"fsq_id":"592888a98d0a5350293f071c","categories":[{"id":13009,"name":"Cocktail Bar","icon":{"prefix":"https://ss3.4sqi.net/img/categories_v2/nightlife/cocktails_","suffix":".png"}}],"chains":[],"distance":346,"geocodes":{"main":{"latitude":46.048593,"longitude":14.504422}},"link":"/v3/places/592888a98d0a5350293f071c","location":{"address":"Židovska steza 2","country":"SI","cross_street":"","formatted_address":"Židovska steza 2, 1000 Ljubljana","locality":"Ljubljana","postcode":"1000","region":"Ljubljana"},"name":"Kolibri","related_places":{},"timezone":"Europe/Ljubljana"},{"fsq_id":"5a8c712d67e5f20271223d42","categories":[{"id":13018,"name":"Pub","icon":{"prefix":"https://ss3.4sqi.net/img/categories_v2/nightlife/pub_","suffix":".png"}}],"chains":[],"distance":478,"geocodes":{"main":{"latitude":46.044141,"longitude":14.506556}},"link":"/v3/places/5a8c712d67e5f20271223d42","location":{"address":"15 Grudnovo nabrežje","country":"SI","cross_street":"","formatted_address":"15 Grudnovo nabrežje, 1000 Ljubljana","locality":"Ljubljana","postcode":"1000","region":"Ljubljana"},"name":"LajBah","related_places":{},"timezone":"Europe/Ljubljana"},{"fsq_id":"4f5b77efe4b01f8f4bea22c8","categories":[{"id":13003,"name":"Bar","icon":{"prefix":"https://ss3.4sqi.net/img/categories_v2/nightlife/pub_","suffix":".png"}}],"chains":[],"distance":382,"geocodes":{"main":{"latitude":46.04733,"longitude":14.506019}},"link":"/v3/places/4f5b77efe4b01f8f4bea22c8","location":{"address":"Gallusovo nabrežje 27","country":"SI","formatted_address":"Gallusovo nabrežje 27, 1000 Ljubljana","locality":"Ljubljana","postcode":"1000","region":"Ljubljana"},"name":"TOZD","related_places":{},"timezone":"Europe/Ljubljana"},{"fsq_id":"4bb373ee2397b7139c1b38b3","categories":[{"id":13018,"name":"Pub","icon":{"prefix":"https://ss3.4sqi.net/img/categories_v2/nightlife/pub_","suffix":".png"}}],"chains":[],"distance":429,"geocodes":{"main":{"latitude":46.043269,"longitude":14.504577}},"link":"/v3/places/4bb373ee2397b7139c1b38b3","location":{"address":"Eipprova ul. 7","country":"SI","formatted_address":"Eipprova ul. 7, 1000 Ljubljana","locality":"Ljubljana","postcode":"1000","region":"Ljubljana"},"name":"Sax Pub & Sax Hostel","related_places":{},"timezone":"Europe/Ljubljana"},{"fsq_id":"4f5932e4e4b083219c5e4483","categories":[{"id":13003,"name":"Bar","icon":{"prefix":"https://ss3.4sqi.net/img/categories_v2/nightlife/pub_","suffix":".png"}}],"chains":[],"distance":794,"geocodes":{"main":{"latitude":46.050424,"longitude":14.509745}},"link":"/v3/places/4f5932e4e4b083219c5e4483","location":{"address":"Krekov trg 7","country":"SI","formatted_address":"Krekov trg 7, 1000 Ljubljana","locality":"Ljubljana","postcode":"1000","region":"Ljubljana"},"name":"Daktari","related_places":{},"timezone":"Europe/Ljubljana"},{"fsq_id":"4d35f5213982224b554e7f25","categories":[{"id":13018,"name":"Pub","icon":{"prefix":"https://ss3.4sqi.net/img/categories_v2/nightlife/pub_","suffix":".png"}}],"chains":[],"distance":623,"geocodes":{"main":{"latitude":46.044016,"longitude":14.508584}},"link":"/v3/places/4d35f5213982224b554e7f25","location":{"address":"Prijateljeva ulica 2","country":"SI","formatted_address":"Prijateljeva ulica 2, 1000 Ljubljana","locality":"Ljubljana","postcode":"1000","region":"Ljubljana"},"name":"Prulček Bar","related_places":{},"timezone":"Europe/Ljubljana"},{"fsq_id":"556cc4de498e8f80c083e295","categories":[{"id":13003,"name":"Bar","icon":{"prefix":"https://ss3.4sqi.net/img/categories_v2/nightlife/pub_","suffix":".png"}}],"chains":[],"distance":538,"geocodes":{"main":{"latitude":46.050293,"longitude":14.505373}},"link":"/v3/places/556cc4de498e8f80c083e295","location":{"address":"Hribarjevo nabrežje 19","country":"SI","cross_street":"","formatted_address":"Hribarjevo nabrežje 19, 1000 Ljubljana","locality":"Ljubljana","postcode":"1000","region":"Ljubljana"},"name":"Makalonca","related_places":{},"timezone":"Europe/Ljubljana"},{"fsq_id":"4bcc7e7e68f976b06dac6283","categories":[{"id":13009,"name":"Cocktail Bar","icon":{"prefix":"https://ss3.4sqi.net/img/categories_v2/nightlife/cocktails_","suffix":".png"}}],"chains":[],"distance":454,"geocodes":{"main":{"latitude":46.049026,"longitude":14.505746}},"link":"/v3/places/4bcc7e7e68f976b06dac6283","location":{"address":"Cankarjevo nabrežje 25","country":"SI","formatted_address":"Cankarjevo nabrežje 25, 1000 Ljubljana","locality":"Ljubljana","postcode":"1000","region":"Ljubljana"},"name":"Fétiche","related_places":{},"timezone":"Europe/Ljubljana"}],"context":{"geo_bounds":{"circle":{"center":{"latitude":46.046377,"longitude":14.501256},"radius":1000}}}}