{"results":[{"fsq_id":"592888a98d0a5350293f071c","categories":[{"id":13009,"name":"Cocktail Bar","icon":{"prefix":"https://ss3.4sqi.net/img/categories_v2/nightlife/cocktails_","suffix":".png"}}],"chains":[],"distance":200,"geocodes":{"main":{"latitude":46.048593,"longitude":14.504422}},"link":"/v3/places/592888a98d0a5350293f071c","location":{"address":"Židovska steza 2","country":"SI","cross_street":"","formatted_address":"Židovska steza 2, 1000 Ljubljana","locality":"Ljubljana","postcode":"1000","region":"Ljubljana"},"name":"Kolibri","related_places":{},"timezone":"Europe/Ljubljana"},{"fsq_id":"4e246c6baeb70263954c4e2c","categories":[{"id":19014,"name":"Hotel","icon":{"prefix":"https://ss3.4sqi.net/img/categories_v2/travel/hotel_","suffix":".png"}}],"chains":[],"distance":244,"geocodes":{"main":{"latitude":46.049139,"longitude":14.502013}},"link":"/v3/places/4e246c6baeb70263954c4e2c","location":{"address":"Slovenska cesta 15","country":"SI","formatted_address":"Slovenska cesta 15, 1000 Ljubljana","locality":"Ljubljana","postcode":"1000","region":"Ljubljana"},"name":"Hotel Cubo","related_places":{},"timezone":"Europe/Ljubljana"},{"fsq_id":"4f5932e4e4b083219c5e4483","categories":[{"id":13003,"name":"Bar","icon":{"prefix":"https://ss3.4sqi.net/img/categories_v2/nightlife/pub_","suffix":".png"}}],"chains":[],"distance":395,"geocodes":{"main":{"latitude":46.050424,"longitude":14.509745}},"link":"/v3/places/4f5932e4e4b083219c5e4483","location":{"address":"Krekov trg 7","country":"SI","formatted_address":"Krekov trg 7, 1000 Ljubljana","locality":"Ljubljana","postcode":"1000","region":"Ljubljana"},"name":"Daktari","related_places":{},"timezone":"Europe/Ljubljana"},{"fsq_id":"594a9cd5a879214d973b3aae","categories":[{"id":13025,"name":"Wine Bar","icon":{"prefix":"https://ss3.4sqi.net/img/categories_v2/food/winery_","suffix":".png"}}],"chains":[],"distance":375,"geocodes":{"main":{"latitude":46.04704,"longitude":14.505326}},"link":"/v3/places/594a9cd5a879214d973b3aae","location":{"address":"Breg 10","country":"SI","cross_street":"","formatted_address":"Breg 10, 1000 Ljubljana","locality":"Ljubljana","postcode":"1000","region":"Ljubljana"},"name":"Wine bar Suklje","related_places":{},"timezone":"Europe/Ljubljana"},{"fsq_id":"556cc4de498e8f80c083e295","categories":[{"id":13003,"name":"Bar","icon":{"prefix":"https://ss3.4sqi.net/img/categories_v2/nightlife/pub_","suffix":".png"}}],"chains":[],"distance":58,"geocodes":{"main":{"latitude":46.050293,"longitude":14.505373}},"link":"/v3/places/556cc4de498e8f80c083e295","location":{"address":"Hribarjevo nabrežje 19","country":"SI","cross_street":"","formatted_address":"Hribarjevo nabrežje 19, 1000 Ljubljana","locality":"Ljubljana","postcode":"1000","region":"Ljubljana"},"name":"Makalonca","related_places":{},"timezone":"Europe/Ljubljana"},{"fsq_id":"4f5b77efe4b01f8f4bea22c8","categories":[{"id":13003,"name":"Bar","icon":{"prefix":"https://ss3.4sqi.net/img/categories_v2/nightlife/pub_","suffix":".png"}}],"chains":[],"distance":356,"geocodes":{"main":{"latitude":46.04733,"longitude":14.506019}},"link":"/v3/places/4f5b77efe4b01f8f4bea22c8","location":{"address":"Gallusovo nabrežje 27","country":"SI","formatted_address":"Gallusovo nabrežje 27, 1000 Ljubljana","locality":"Ljubljana","postcode":"1000","region":"Ljubljana"},"name":"TOZD","related_places":{},"timezone":"Europe/Ljubljana"},{"fsq_id":"4bd1f765046076b0b8ea7271","categories":[{"id":13018,"name":"Pub","icon":{"prefix":"https://ss3.4sqi.net/img/categories_v2/nightlife/pub_","suffix":".png"}}],"chains":[],"distance":500,"geocodes":{"main":{"latitude":46.054439,"longitude":14.507459}},"link":"/v3/places/4bd1f765046076b0b8ea7271","location":{"address":"Tavčarjeva ul. 8a","country":"SI","formatted_address":"Tavčarjeva ul. 8a, 1000 Ljubljana","locality":"Ljubljana","postcode":"1000","region":"Ljubljana"},"name":"Sir William's pub","related_places":{},"timezone":"Europe/Ljubljana"},{"fsq_id":"5a8c712d67e5f20271223d42","categories":[{"id":13018,"name":"Pub","icon":{"prefix":"https://ss3.4sqi.net/img/categories_v2/nightlife/pub_","suffix":".png"}}],"chains":[],"distance":710,"geocodes":{"main":{"latitude":46.044141,"longitude":14.506556}},"link":"/v3/places/5a8c712d67e5f20271223d42","location":{"address":"15 Grudnovo nabrežje","country":"SI","cross_street":"","formatted_address":"15 Grudnovo nabrežje, 1000 Ljubljana","locality":"Ljubljana","postcode":"1000","region":"Ljubljana"},"name":"LajBah","related_places":{},"timezone":"Europe/Ljubljana"},{"fsq_id":"5975a0f67269fe3e6be557e2","categories":[{"id":19014,"name":"Hotel","icon":{"prefix":"https://ss3.4sqi.net/img/categories_v2/travel/hotel_","suffix":".png"}}],"chains":[],"distance":757,"geocodes":{"main":{"latitude":46.057172,"longitude":14.505586}},"link":"/v3/places/5975a0f67269fe3e6be557e2","location":{"address":"Slovenska Cesta 59","country":"SI","cross_street":"","formatted_address":"Slovenska Cesta 59, 1000 Ljubljana","locality":"Ljubljana","postcode":"1000","region":"Ljubljana"},"name":"InterContinental Ljubljana","related_places":{"children":[{"fsq_id":"59ab291d5a2c9117f3f55135","name":"Tempted"},{"fsq_id":"59d8f7b38c35dc1a5ab156f6","name":"B Bar (Intercontinental Ljubljana)"},{"fsq_id":"59a1834fe185f358f6c0eacb","name":"Bloom Lounge"},{"fsq_id":"5b9691aa9d7468002c4844d3","name":"Intercontinental Hotel Gym"},{"fsq_id":"5ae63369d552c700394be119","name":"Intercontinental Club Ljubljana"},{"fsq_id":"59b91493e2ead1378c431dfc","name":"B Restaurant And Bar"}]},"timezone":"Europe/Ljubljana"},{"fsq_id":"4c1de7b48b3aa593ea4d9b5f","categories":[{"id":19014,"name":"Hotel","icon":{"prefix":"https://ss3.4sqi.net/img/categories_v2/travel/hotel_","suffix":".png"}}],"chains":[],"distance":264,"geocodes":{"main":{"latitude":46.052488,"longitude":14.50624}},"link":"/v3/places/4c1de7b48b3aa593ea4d9b5f","location":{"address":"Miklošičeva c. 1","country":"SI","cross_street":"Nazorjeva ulica","formatted_address":"Miklošičeva c. 1 (Nazorjeva ulica), 1000 Ljubljana","locality":"Ljubljana","postcode":"1000","region":"Ljubljana"},"name":"Grand Hotel Union","related_places":{"children":[{"fsq_id":"5ccbf7c135f983002c58ab8c","name":"Breakfast Restaurant @Grand Hotel Union"}]},"timezone":"Europe/Ljubljana"}],"context":{"geo_bounds":{"circle":{"center":{"latitude":46.050388,"longitude":14.504623},"radius":1000}}}}