{"results":[{"fsq_id":"5975a0f67269fe3e6be557e2","categories":[{"id":19014,"name":"Hotel","icon":{"prefix":"https://ss3.4sqi.net/img/categories_v2/travel/hotel_","suffix":".png"}}],"chains":[],"distance":925,"geocodes":{"main":{"latitude":46.057172,"longitude":14.505586}},"link":"/v3/places/5975a0f67269fe3e6be557e2","location":{"address":"Slovenska Cesta 59","country":"SI","cross_street":"","formatted_address":"Slovenska Cesta 59, 1000 Ljubljana","locality":"Ljubljana","postcode":"1000","region":"Ljubljana"},"name":"InterContinental Ljubljana","related_places":{"children":[{"fsq_id":"59ab291d5a2c9117f3f55135","name":"Tempted"},{"fsq_id":"59d8f7b38c35dc1a5ab156f6","name":"B Bar (Intercontinental Ljubljana)"},{"fsq_id":"59a1834fe185f358f6c0eacb","name":"Bloom Lounge"},{"fsq_id":"5b9691aa9d7468002c4844d3","name":"Intercontinental Hotel Gym"},{"fsq_id":"5ae63369d552c700394be119","name":"Intercontinental Club Ljubljana"},{"fsq_id":"59b91493e2ead1378c431dfc","name":"B Restaurant And Bar"}]},"timezone":"Europe/Ljubljana"},{"fsq_id":"4bc886b26501c9b61e414029","categories":[{"id":13003,"name":"Bar","icon":{"prefix":"https://ss3.4sqi.net/img/categories_v2/nightlife/pub_","suffix":".png"}}],"chains":[],"distance":768,"geocodes":{"main":{"latitude":46.060014,"longitude":14.515815}},"link":"/v3/places/4bc886b26501c9b61e414029","location":{"address":"Vilharjeva 27","country":"SI","formatted_address":"Vilharjeva 27, Ljubljana","locality":"Ljubljana","region":"Ljubljana"},"name":"Oskar american bar","related_places":{},"timezone":"Europe/Ljubljana"},{"fsq_id":"4bd87b9de914a5939c5953fa","categories":[{"id":13003,"name":"Bar","icon":{"prefix":"https://ss3.4sqi.net/img/categories_v2/nightlife/pub_","suffix":".png"}}],"chains":[],"distance":113,"geocodes":{"main":{"latitude":46.065687,"longitude":14.510357}},"link":"/v3/places/4bd87b9de914a5939c5953fa","location":{"address":"Kržičeva ul. 3","country":"SI","cross_street":"","formatted_address":"Kržičeva ul. 3, 1000 Ljubljana","locality":"Ljubljana","postcode":"1000","region":"Ljubljana"},"name":"NewCastle Bar","related_places":{},"timezone":"Europe/Ljubljana"},{"fsq_id":"5486e018498e19bef4891040","categories":[{"id":13003,"name":"Bar","icon":{"prefix":"https://ss3.4sqi.net/img/categories_v2/nightlife/pub_","suffix":".png"}}],"chains":[],"distance":564,"geocodes":{"main":{"latitude":46.060265,"longitude":14.507019}},"link":"/v3/places/5486e018498e19bef4891040","location":{"country":"SI","cross_street":"","formatted_address":""},"name":"Ginger bar","related_places":{},"timezone":"Europe/Ljubljana"},{"fsq_id":"4e0746f3ae60a90eabc7dee4","categories":[{"id":13003,"name":"Bar","icon":{"prefix":"https://ss3.4sqi.net/img/categories_v2/nightlife/pub_","suffix":".png"}}],"chains":[],"distance":935,"geocodes":{"main":{"latitude":46.07345,"longitude":14.511055}},"link":"/v3/places/4e0746f3ae60a90eabc7dee4","location":{"address":"Dunajska c. 103","country":"SI","formatted_address":"Dunajska c. 103, 1000 Ljubljana","locality":"Ljubljana","postcode":"1000","region":"Ljubljana"},"name":"Gaj Bar","related_places":{},"timezone":"Europe/Ljubljana"},{"fsq_id":"4d9ca331c99fb60c50cdb58b","categories":[{"id":13018,"name":"Pub","icon":{"prefix":"https://ss3.4sqi.net/img/categories_v2/nightlife/pub_","suffix":".png"}}],"chains":[],"distance":919,"geocodes":{"main":{"latitude":46.073324,"longitude":14.51086}},"link":"/v3/places/4d9ca331c99fb60c50cdb58b","location":{"address":"Dunajska cesta 101","country":"SI","cross_street":"","formatted_address":"Dunajska cesta 101, Ljubljana","locality":"Ljubljana","region":"Ljubljana"},"name":"Galilej pub","related_places":{},"timezone":"Europe/Ljubljana"},{"fsq_id":"509c1904e4b07873475337e6","categories":[{"id":13018,"name":"Pub","icon":{"prefix":"https://ss3.4sqi.net/img/categories_v2/nightlife/pub_","suffix":".png"}}],"chains":[],"distance":455,"geocodes":{"main":{"latitude":46.061157,"longitude":14.507708}},"link":"/v3/places/509c1904e4b07873475337e6","location":{"address":"Dunajska cesta 18","country":"SI","cross_street":"","formatted_address":"Dunajska cesta 18, 1000 Ljubljana","locality":"Ljubljana","postcode":"1000","region":"Ljubljana"},"name":"Paviljon Pub","related_places":{"parent":{"fsq_id":"4ba36dbef964a520443c38e3","name":"Gospodarsko razstavišče"}},"timezone":"Europe/Ljubljana"},{"fsq_id":"51e52e832fc6971a4cb6dc91","categories":[{"id":15031,"name":"Doctor's Office","icon":{"prefix":"https://ss3.4sqi.net/img/categories_v2/building/medical_doctorsoffice_","suffix":".png"}}],"chains":[],"distance":71,"geocodes":{"main":{"latitude":46.065519,"longitude":14.50985}},"link":"/v3/places/51e52e832fc6971a4cb6dc91","location":{"address":"Dunajska cesta","country":"SI","cross_street":"Dunajska cesta 56","formatted_address":"Dunajska cesta (Dunajska cesta 56), 1000 Ljubljana","locality":"Ljubljana","postcode":"1000","region":"Ljubljana"},"name":"Očesni center Bežigrajski dvor Optovid","related_places":{},"timezone":"Europe/Ljubljana"},{"fsq_id":"4d18c57a1356a093661ee582","categories":[{"id":13018,"name":"Pub","icon":{"prefix":"https://ss3.4sqi.net/img/categories_v2/nightlife/pub_","suffix":".png"}}],"chains":[],"distance":91,"geocodes":{"main":{"latitude":46.065547,"longitude":14.51014}},"link":"/v3/places/4d18c57a1356a093661ee582","location":{"country":"SI","cross_street":"","formatted_address":""},"name":"City Pub","related_places":{},"timezone":"Europe/Ljubljana"},{"fsq_id":"59458eeeb6b04b6c8b7518cb","categories":[{"id":13018,"name":"Pub","icon":{"prefix":"https://ss3.4sqi.net/img/categories_v2/nightlife/pub_","suffix":".png"}}],"chains":[],"distance":146,"geocodes":{"main":{"latitude":46.066452,"longitude":14.509223}},"link":"/v3/places/59458eeeb6b04b6c8b7518cb","location":{"address":"Dunajska cesta 61","country":"SI","cross_street":"","formatted_address":"Dunajska cesta 61, 1000 Ljubljana","locality":"Ljubljana","postcode":"1000","region":"Ljubljana"},"name":"Signum Pub","related_places":{},"timezone":"Europe/Ljubljana"}],"context":{"geo_bounds":{"circle":{"center":{"latitude":46.065136,"longitude":14.509112},"radius":1000}}}}