{"results":[{"fsq_id":"4c2345b7fbe5c9b6d21c9b21","categories":[{"id":13003,"name":"Bar","icon":{"prefix":"https://ss3.4sqi.net/img/categories_v2/nightlife/pub_","suffix":".png"}}],"chains":[],"distance":112,"geocodes":{"main":{"latitude":46.02022,"longitude":14.533907}},"link":"/v3/places/4c2345b7fbe5c9b6d21c9b21","location":{"address":"Jurckova cesta 222","country":"SI","cross_street":"","formatted_address":"Jurckova cesta 222, Ljubljana","locality":"Ljubljana","region":"Ljubljana"},"name":"Lepo je biti sosed","related_places":{},"timezone":"Europe/Ljubljana"},{"fsq_id":"4e620b9ad4c06542aac2ce84","categories":[{"id":13003,"name":"Bar","icon":{"prefix":"https://ss3.4sqi.net/img/categories_v2/nightlife/pub_","suffix":".png"}}],"chains":[],"distance":116,"geocodes":{"main":{"latitude":46.020253,"longitude":14.533954}},"link":"/v3/places/4e620b9ad4c06542aac2ce84","location":{"address":"Jurckova cesta 222","country":"SI","cross_street":"","formatted_address":"Jurckova cesta 222, Ljubljana","locality":"Ljubljana","region":"Ljubljana"},"name":"Vunder","related_places":{},"timezone":"Europe/Ljubljana"},{"fsq_id":"4d4d0987b887a1cdca79b7a0","categories":[{"id":13003,"name":"Bar","icon":{"prefix":"https://ss3.4sqi.net/img/categories_v2/nightlife/pub_","suffix":".png"}}],"chains":[],"distance":175,"geocodes":{"main":{"latitude":46.018433,"longitude":14.532525}},"link":"/v3/places/4d4d0987b887a1cdca79b7a0","location":{"address":"Jurčkova cesta 226","country":"SI","cross_street":"","formatted_address":"Jurčkova cesta 226, Ljubljana","locality":"Ljubljana","region":"Ljubljana"},"name":"Orhideja Caffe","related_places":{},"timezone":"Europe/Ljubljana"},{"fsq_id":"4d35623298336dcbf7b440f0","categories":[{"id":13003,"name":"Bar","icon":{"prefix":"https://ss3.4sqi.net/img/categories_v2/nightlife/pub_","suffix":".png"}}],"chains":[],"distance":493,"geocodes":{"main":{"latitude":46.021136,"longitude":14.538663}},"link":"/v3/places/4d35623298336dcbf7b440f0","location":{"address":"Jurčkova c. 229","country":"SI","cross_street":"Ukmarjeva c.","formatted_address":"Jurčkova c. 229 (Ukmarjeva c.), 1000 Ljubljana","locality":"Ljubljana","postcode":"1000","region":"Ljubljana"},"name":"Bar Je Bar","related_places":{},"timezone":"Europe/Ljubljana"},{"fsq_id":"51974390498e6cc06dfb86a1","categories":[{"id":13003,"name":"Bar","icon":{"prefix":"https://ss3.4sqi.net/img/categories_v2/nightlife/pub_","suffix":".png"}}],"chains":[],"distance":334,"geocodes":{"main":{"latitude":46.020289,"longitude":14.536791}},"link":"/v3/places/51974390498e6cc06dfb86a1","location":{"country":"SI","cross_street":"","formatted_address":""},"name":"Njam Njam","related_places":{},"timezone":"Europe/Ljubljana"},{"fsq_id":"4f5e162be4b0a4baa4e64130","categories":[{"id":15031,"name":"Doctor's Office","icon":{"prefix":"https://ss3.4sqi.net/img/categories_v2/building/medical_doctorsoffice_","suffix":".png"}}],"chains":[],"distance":489,"geocodes":{"main":{"latitude":46.021001,"longitude":14.538667}},"link":"/v3/places/4f5e162be4b0a4baa4e64130","location":{"address":"Jurčkova c. 231","country":"SI","formatted_address":"Jurčkova c. 231, 1000 Ljubljana","locality":"Ljubljana","postcode":"1000","region":"Ljubljana"},"name":"Pravovid","related_places":{},"timezone":"Europe/Ljubljana"},{"fsq_id":"4febfc62e4b0c8f8a57f00cc","categories":[{"id":15031,"name":"Doctor's Office","icon":{"prefix":"https://ss3.4sqi.net/img/categories_v2/building/medical_doctorsoffice_","suffix":".png"}}],"chains":[],"distance":549,"geocodes":{"main":{"latitude":46.021072,"longitude":14.53943}},"link":"/v3/places/4febfc62e4b0c8f8a57f00cc","location":{"address":"Jurčkova c. 231","country":"SI","cross_street":"Vhod B1, 2 Nadstropje","formatted_address":"Jurčkova c. 231 (Vhod B1, 2 Nadstropje), 1000 Ljubljana","locality":"Ljubljana","postcode":"1000","region":"Ljubljana"},"name":"Dermatološka Ambulanta Boris Kralj Dr. Med.","related_places":{},"timezone":"Europe/Ljubljana"},{"fsq_id":"5d7bd6302deabf00082e44e2","categories":[{"id":13003,"name":"Bar","icon":{"prefix":"https://ss3.4sqi.net/img/categories_v2/nightlife/pub_","suffix":".png"}}],"chains":[],"distance":570,"geocodes":{"main":{"latitude":46.016795,"longitude":14.538236}},"link":"/v3/places/5d7bd6302deabf00082e44e2","location":{"country":"SI","cross_street":"","formatted_address":"1000 Ljubljana","locality":"Ljubljana","postcode":"1000","region":"Ljubljana"},"name":"Slice Of Life","related_places":{},"timezone":"Europe/Ljubljana"},{"fsq_id":"4e3265f145ddcff0a75433ff","categories":[{"id":13025,"name":"Wine Bar","icon":{"prefix":"https://ss3.4sqi.net/img/categories_v2/food/winery_","suffix":".png"}}],"chains":[],"distance":607,"geocodes":{"main":{"latitude":46.021104,"longitude":14.540188}},"link":"/v3/places/4e3265f145ddcff0a75433ff","location":{"address":"Peruzzijeva ul. 24","country":"SI","formatted_address":"Peruzzijeva ul. 24, 1000 Ljubljana","locality":"Ljubljana","postcode":"1000","region":"Ljubljana"},"name":"Vinska klet Frelih","related_places":{},"timezone":"Europe/Ljubljana"},{"fsq_id":"4dbc23356a23e294ba25c504","categories":[{"id":13003,"name":"Bar","icon":{"prefix":"https://ss3.4sqi.net/img/categories_v2/nightlife/pub_","suffix":".png"}}],"chains":[],"distance":644,"geocodes":{"main":{"latitude":46.025657,"longitude":14.534372}},"link":"/v3/places/4dbc23356a23e294ba25c504","location":{"country":"SI","cross_street":"","formatted_address":"1000 Ljubljana","locality":"Ljubljana","postcode":"1000","region":"Ljubljana"},"name":"LBS Bar","related_places":{},"timezone":"Europe/Ljubljana"}],"context":{"geo_bounds":{"circle":{"center":{"latitude":46.020012,"longitude":14.532479},"radius":1000}}}}