{"results":[{"fsq_id":"505e01f7e4b0b4345fde51b9","categories":[{"id":19014,"name":"Hotel","icon":{"prefix":"https://ss3.4sqi.net/img/categories_v2/travel/hotel_","suffix":".png"}}],"chains":[],"distance":861,"geocodes":{"main":{"latitude":46.05427,"longitude":14.519736}},"link":"/v3/places/505e01f7e4b0b4345fde51b9","location":{"address":"Njegoševa c. 6K","country":"SI","cross_street":"","formatted_address":"Njegoševa c. 6K, Ljubljana","locality":"Ljubljana","region":"Ljubljana"},"name":"Hotel Meksiko","related_places":{},"timezone":"Europe/Ljubljana"},{"fsq_id":"4d4da99980cb6dcb54221301","categories":[{"id":13003,"name":"Bar","icon":{"prefix":"https://ss3.4sqi.net/img/categories_v2/nightlife/pub_","suffix":".png"}}],"chains":[],"distance":38,"geocodes":{"main":{"latitude":46.051881,"longitude":14.52985}},"link":"/v3/places/4d4da99980cb6dcb54221301","location":{"address":"Grablovičeva ul. 64","country":"SI","formatted_address":"Grablovičeva ul. 64, 1000 Ljubljana","locality":"Ljubljana","postcode":"1000","region":"Ljubljana"},"name":"Smuggler bar","related_places":{},"timezone":"Europe/Ljubljana"},{"fsq_id":"4d72162ad145a1cd4228aff3","categories":[{"id":13003,"name":"Bar","icon":{"prefix":"https://ss3.4sqi.net/img/categories_v2/nightlife/pub_","suffix":".png"}}],"chains":[],"distance":47,"geocodes":{"main":{"latitude":46.052256,"longitude":14.530104}},"link":"/v3/places/4d72162ad145a1cd4228aff3","location":{"address":"Grabloviceva","country":"SI","cross_street":"","formatted_address":"Grabloviceva, Ljubljana","locality":"Ljubljana","region":"Ljubljana"},"name":"Bar Shark","related_places":{},"timezone":"Europe/Ljubljana"},{"fsq_id":"4c4157e1da3dc928a5dbc8b9","categories":[{"id":19013,"name":"Hostel","icon":{"prefix":"https://ss3.4sqi.net/img/categories_v2/travel/hostel_","suffix":".png"}}],"chains":[],"distance":998,"geocodes":{"main":{"latitude":46.048119,"longitude":14.518575}},"link":"/v3/places/4c4157e1da3dc928a5dbc8b9","location":{"address":"Poljanska c. 26","country":"SI","formatted_address":"Poljanska c. 26, 1000 Ljubljana","locality":"Ljubljana","postcode":"1000","region":"Ljubljana"},"name":"DIC hostel","related_places":{},"timezone":"Europe/Ljubljana"},{"fsq_id":"4ed10093d3e3521ce656781f","categories":[{"id":13003,"name":"Bar","icon":{"prefix":"https://ss3.4sqi.net/img/categories_v2/nightlife/pub_","suffix":".png"}}],"chains":[],"distance":140,"geocodes":{"main":{"latitude":46.053,"longitude":14.531145}},"link":"/v3/places/4ed10093d3e3521ce656781f","location":{"country":"SI","cross_street":"","formatted_address":"Ljubljana","locality":"Ljubljana","region":"Ljubljana"},"name":"Porto Bar","related_places":{},"timezone":"Europe/Ljubljana"},{"fsq_id":"500583a2e4b0de12a3f4db11","categories":[{"id":15031,"name":"Doctor's Office","icon":{"prefix":"https://ss3.4sqi.net/img/categories_v2/building/medical_doctorsoffice_","suffix":".png"}}],"chains":[],"distance":170,"geocodes":{"main":{"latitude":46.051836,"longitude":14.528136}},"link":"/v3/places/500583a2e4b0de12a3f4db11","location":{"country":"SI","cross_street":"","formatted_address":""},"name":"Dirona","related_places":{},"timezone":"Europe/Ljubljana"},{"fsq_id":"4e06536aa809495e619224b5","categories":[{"id":13007,"name":"Beer Garden","icon":{"prefix":"https://ss3.4sqi.net/img/categories_v2/nightlife/beergarden_","suffix":".png"}}],"chains":[],"distance":199,"geocodes":{"main":{"latitude":46.050121,"longitude":14.530961}},"link":"/v3/places/4e06536aa809495e619224b5","location":{"address":"34A Koblarjeva ulica","country":"SI","cross_street":"","formatted_address":"34A Koblarjeva ulica, 1000 Ljubljana","locality":"Ljubljana","postcode":"1000","region":"Ljubljana"},"name":"Luna Park","related_places":{},"timezone":"Europe/Ljubljana"},{"fsq_id":"4d00b2512685a35dbb09ca90","categories":[{"id":13003,"name":"Bar","icon":{"prefix":"https://ss3.4sqi.net/img/categories_v2/nightlife/pub_","suffix":".png"}}],"chains":[],"distance":264,"geocodes":{"main":{"latitude":46.049865,"longitude":14.532215}},"link":"/v3/places/4d00b2512685a35dbb09ca90","location":{"address":"Gortanova Ulica","country":"SI","cross_street":"","formatted_address":"Gortanova Ulica, 1000 Ljubljana","locality":"Ljubljana","postcode":"1000","region":"Ljubljana"},"name":"Slovan","related_places":{},"timezone":"Europe/Ljubljana"},{"fsq_id":"5b20b8e01acf11002cb0996a","categories":[{"id":15031,"name":"Doctor's Office","icon":{"prefix":"https://ss3.4sqi.net/img/categories_v2/building/medical_doctorsoffice_","suffix":".png"}}],"chains":[],"distance":314,"geocodes":{"main":{"latitude":46.054317,"longitude":14.528317}},"link":"/v3/places/5b20b8e01acf11002cb0996a","location":{"address":"Zaloška 29","country":"SI","cross_street":"","formatted_address":"Zaloška 29, 1000 Ljubljana","locality":"Ljubljana","postcode":"1000","region":"Ljubljana"},"name":"NIJZ Območna enota Ljubljana","related_places":{},"timezone":"Europe/Ljubljana"},{"fsq_id":"4e5eaad63151819897b36fe0","categories":[{"id":15031,"name":"Doctor's Office","icon":{"prefix":"https://ss3.4sqi.net/img/categories_v2/building/medical_doctorsoffice_","suffix":".png"}}],"chains":[],"distance":332,"geocodes":{"main":{"latitude":46.054598,"longitude":14.528593}},"link":"/v3/places/4e5eaad63151819897b36fe0","location":{"address":"Zaloška cesta 29","country":"SI","formatted_address":"Zaloška cesta 29, 1000 Ljubljana","locality":"Ljubljana","postcode":"1000","region":"Ljubljana"},"name":"Bolnišnica Golnik - ambulanta Ljubljana","related_places":{},"timezone":"Europe/Ljubljana"}],"context":{"geo_bounds":{"circle":{"center":{"latitude":46.051863,"longitude":14.530349},"radius":1000}}}}