{"results":[{"fsq_id":"4c03cf739a7920a1e055d079","categories":[{"id":19013,"name":"Hostel","icon":{"prefix":"https://ss3.4sqi.net/img/categories_v2/travel/hostel_","suffix":".png"}}],"chains":[],"distance":830,"geocodes":{"main":{"latitude":46.051122,"longitude":14.496531}},"link":"/v3/places/4c03cf739a7920a1e055d079","location":{"address":"Veselova ulica 14","country":"SI","formatted_address":"Veselova ulica 14, 1000 Ljubljana","locality":"Ljubljana","postcode":"1000","region":"Ljubljana"},"name":"Vila Veselova","related_places":{},"timezone":"Europe/Ljubljana"},{"fsq_id":"4e6b2a99ae60950955cd672e","categories":[{"id":19013,"name":"Hostel","icon":{"prefix":"https://ss3.4sqi.net/img/categories_v2/travel/hostel_","suffix":".png"}}],"chains":[],"distance":736,"geocodes":{"main":{"latitude":46.047046,"longitude":14.482802}},"link":"/v3/places/4e6b2a99ae60950955cd672e","location":{"country":"SI","cross_street":"","formatted_address":"Ljubljana","locality":"Ljubljana","region":"Ljubljana"},"name":"Hostel Print","related_places":{},"timezone":"Europe/Ljubljana"},{"fsq_id":"5a848c0cf427de78ff3f5b52","categories":[{"id":13003,"name":"Bar","icon":{"prefix":"https://ss3.4sqi.net/img/categories_v2/nightlife/pub_","suffix":".png"}}],"chains":[],"distance":831,"geocodes":{"main":{"latitude":46.04788,"longitude":14.493734}},"link":"/v3/places/5a848c0cf427de78ff3f5b52","location":{"address":"Tržaška cesta 2","country":"SI","cross_street":"","formatted_address":"Tržaška cesta 2, 1000 Ljubljana","locality":"Ljubljana","postcode":"1000","region":"Ljubljana"},"name":"ČINČIN","related_places":{},"timezone":"Europe/Ljubljana"},{"fsq_id":"4b574077f964a520722d28e3","categories":[{"id":13016,"name":"Lounge","icon":{"prefix":"https://ss3.4sqi.net/img/categories_v2/nightlife/default_","suffix":".png"}}],"chains":[],"distance":969,"geocodes":{"main":{"latitude":46.044517,"longitude":14.486197}},"link":"/v3/places/4b574077f964a520722d28e3","location":{"address":"Tržaška cesta 37","country":"SI","cross_street":"","formatted_address":"Tržaška cesta 37, 1000 Ljubljana","locality":"Ljubljana","postcode":"1000","region":"Ljubljana"},"name":"Egoist Lounge Bar","related_places":{},"timezone":"Europe/Ljubljana"},{"fsq_id":"51c4a8a3498e74febd3d8a35","categories":[{"id":13009,"name":"Cocktail Bar","icon":{"prefix":"https://ss3.4sqi.net/img/categories_v2/nightlife/cocktails_","suffix":".png"}}],"chains":[],"distance":255,"geocodes":{"main":{"latitude":46.052092,"longitude":14.489079}},"link":"/v3/places/51c4a8a3498e74febd3d8a35","location":{"country":"SI","cross_street":"","formatted_address":""},"name":"Pr'skelet 2","related_places":{},"timezone":"Europe/Ljubljana"},{"fsq_id":"504a2412e4b0f680c89419cb","categories":[{"id":19014,"name":"Hotel","icon":{"prefix":"https://ss3.4sqi.net/img/categories_v2/travel/hotel_","suffix":".png"}}],"chains":[],"distance":317,"geocodes":{"main":{"latitude":46.050432,"longitude":14.48548}},"link":"/v3/places/504a2412e4b0f680c89419cb","location":{"address":"Rozna Dolina c.I/26","country":"SI","cross_street":"","formatted_address":"Rozna Dolina c.I/26, 1000 Ljubljana","locality":"Ljubljana","postcode":"1000","region":"Ljubljana"},"name":"Katrca 1905","related_places":{},"timezone":"Europe/Ljubljana"},{"fsq_id":"621a05cef6c27f462525a224","categories":[{"id":19014,"name":"Hotel","icon":{"prefix":"https://ss3.4sqi.net/img/categories_v2/travel/hotel_","suffix":".png"}}],"chains":[],"distance":424,"geocodes":{"main":{"latitude":46.055397,"longitude":14.481666}},"link":"/v3/places/621a05cef6c27f462525a224","location":{"address":"Cesta Na Roznik 18","country":"SI","cross_street":"","formatted_address":"Cesta Na Roznik 18, 1000 Ljubljana","locality":"Ljubljana","postcode":"1000","region":"Ljubljana"},"name":"Hotel Čad","related_places":{},"timezone":"Europe/Ljubljana"},{"fsq_id":"51069e6ee4b0700e1ed7f96b","categories":[{"id":15031,"name":"Doctor's Office","icon":{"prefix":"https://ss3.4sqi.net/img/categories_v2/building/medical_doctorsoffice_","suffix":".png"}}],"chains":[],"distance":430,"geocodes":{"main":{"latitude":46.049377,"longitude":14.486631}},"link":"/v3/places/51069e6ee4b0700e1ed7f96b","location":{"country":"SI","cross_street":"","formatted_address":""},"name":"Splosna Ambulanta Rozna Dolina","related_places":{},"timezone":"Europe/Ljubljana"},{"fsq_id":"4f43727ee4b058e77c8f7388","categories":[{"id":13003,"name":"Bar","icon":{"prefix":"https://ss3.4sqi.net/img/categories_v2/nightlife/pub_","suffix":".png"}}],"chains":[],"distance":596,"geocodes":{"main":{"latitude":46.048001,"longitude":14.487877}},"link":"/v3/places/4f43727ee4b058e77c8f7388","location":{"address":"C. v Rožno dolino 40","country":"SI","formatted_address":"C. v Rožno dolino 40, 1000 Ljubljana","locality":"Ljubljana","postcode":"1000","region":"Ljubljana"},"name":"Žolna bar","related_places":{},"timezone":"Europe/Ljubljana"},{"fsq_id":"4b8d44fcf964a520fff032e3","categories":[{"id":13003,"name":"Bar","icon":{"prefix":"https://ss3.4sqi.net/img/categories_v2/nightlife/pub_","suffix":".png"}}],"chains":[],"distance":901,"geocodes":{"main":{"latitude":46.046126,"longitude":14.491822}},"link":"/v3/places/4b8d44fcf964a520fff032e3","location":{"address":"Tržaška 19","country":"SI","cross_street":"Langusova ulica","formatted_address":"Tržaška 19 (Langusova ulica), 1000 Ljubljana","locality":"Ljubljana","postcode":"1000","region":"Ljubljana"},"name":"Corner pub","related_places":{},"timezone":"Europe/Ljubljana"}],"context":{"geo_bounds":{"circle":{"center":{"latitude":46.053241,"longitude":14.486206},"radius":1000}}}}