{"results":[{"fsq_id":"5975a0f67269fe3e6be557e2","categories":[{"id":19014,"name":"Hotel","icon":{"prefix":"https://ss3.4sqi.net/img/categories_v2/travel/hotel_","suffix":".png"}}],"chains":[],"distance":671,"geocodes":{"main":{"latitude":46.057172,"longitude":14.505586}},"link":"/v3/places/5975a0f67269fe3e6be557e2","location":{"address":"Slovenska Cesta 59","country":"SI","cross_street":"","formatted_address":"Slovenska Cesta 59, 1000 Ljubljana","locality":"Ljubljana","postcode":"1000","region":"Ljubljana"},"name":"InterContinental Ljubljana","related_places":{"children":[{"fsq_id":"59ab291d5a2c9117f3f55135","name":"Tempted"},{"fsq_id":"59d8f7b38c35dc1a5ab156f6","name":"B Bar (Intercontinental Ljubljana)"},{"fsq_id":"59a1834fe185f358f6c0eacb","name":"Bloom Lounge"},{"fsq_id":"5b9691aa9d7468002c4844d3","name":"Intercontinental Hotel Gym"},{"fsq_id":"5ae63369d552c700394be119","name":"Intercontinental Club Ljubljana"},{"fsq_id":"59b91493e2ead1378c431dfc","name":"B Restaurant And Bar"}]},"timezone":"Europe/Ljubljana"},{"fsq_id":"4bd1f765046076b0b8ea7271","categories":[{"id":13018,"name":"Pub","icon":{"prefix":"https://ss3.4sqi.net/img/categories_v2/nightlife/pub_","suffix":".png"}}],"chains":[],"distance":633,"geocodes":{"main":{"latitude":46.054439,"longitude":14.507459}},"link":"/v3/places/4bd1f765046076b0b8ea7271","location":{"address":"Tavčarjeva ul. 8a","country":"SI","formatted_address":"Tavčarjeva ul. 8a, 1000 Ljubljana","locality":"Ljubljana","postcode":"1000","region":"Ljubljana"},"name":"Sir William's pub","related_places":{},"timezone":"Europe/Ljubljana"},{"fsq_id":"4f5932e4e4b083219c5e4483","categories":[{"id":13003,"name":"Bar","icon":{"prefix":"https://ss3.4sqi.net/img/categories_v2/nightlife/pub_","suffix":".png"}}],"chains":[],"distance":873,"geocodes":{"main":{"latitude":46.050424,"longitude":14.509745}},"link":"/v3/places/4f5932e4e4b083219c5e4483","location":{"address":"Krekov trg 7","country":"SI","formatted_address":"Krekov trg 7, 1000 Ljubljana","locality":"Ljubljana","postcode":"1000","region":"Ljubljana"},"name":"Daktari","related_places":{},"timezone":"Europe/Ljubljana"},{"fsq_id":"5295d985498e725c48ec3821","categories":[{"id":13003,"name":"Bar","icon":{"prefix":"https://ss3.4sqi.net/img/categories_v2/nightlife/pub_","suffix":".png"}}],"chains":[],"distance":707,"geocodes":{"main":{"latitude":46.052423,"longitude":14.508986}},"link":"/v3/places/5295d985498e725c48ec3821","location":{"address":"Trubarjeva 23","country":"SI","cross_street":"","formatted_address":"Trubarjeva 23, Ljubljana","locality":"Ljubljana","region":"Ljubljana"},"name":"Central Station (Centralna Postaja)","related_places":{},"timezone":"Europe/Ljubljana"},{"fsq_id":"4b7dba47f964a520ebd02fe3","categories":[{"id":13018,"name":"Pub","icon":{"prefix":"https://ss3.4sqi.net/img/categories_v2/nightlife/pub_","suffix":".png"}}],"chains":[],"distance":710,"geocodes":{"main":{"latitude":46.052743,"longitude":14.508319}},"link":"/v3/places/4b7dba47f964a520ebd02fe3","location":{"address":"Prečna ul. 6","country":"SI","formatted_address":"Prečna ul. 6, 1000 Ljubljana","locality":"Ljubljana","postcode":"1000","region":"Ljubljana"},"name":"Patrick's Irish Bar","related_places":{},"timezone":"Europe/Ljubljana"},{"fsq_id":"4c1de7b48b3aa593ea4d9b5f","categories":[{"id":19014,"name":"Hotel","icon":{"prefix":"https://ss3.4sqi.net/img/categories_v2/travel/hotel_","suffix":".png"}}],"chains":[],"distance":842,"geocodes":{"main":{"latitude":46.052488,"longitude":14.50624}},"link":"/v3/places/4c1de7b48b3aa593ea4d9b5f","location":{"address":"Miklošičeva c. 1","country":"SI","cross_street":"Nazorjeva ulica","formatted_address":"Miklošičeva c. 1 (Nazorjeva ulica), 1000 Ljubljana","locality":"Ljubljana","postcode":"1000","region":"Ljubljana"},"name":"Grand Hotel Union","related_places":{"children":[{"fsq_id":"5ccbf7c135f983002c58ab8c","name":"Breakfast Restaurant @Grand Hotel Union"}]},"timezone":"Europe/Ljubljana"},{"fsq_id":"58ec73f1d4ab7306d2789994","categories":[{"id":19014,"name":"Hotel","icon":{"prefix":"https://ss3.4sqi.net/img/categories_v2/travel/hotel_","suffix":".png"}}],"chains":[],"distance":937,"geocodes":{"main":{"latitude":46.053886,"longitude":14.503366}},"link":"/v3/places/58ec73f1d4ab7306d2789994","location":{"address":"Štefanova ulica 4","country":"SI","cross_street":"","formatted_address":"Štefanova ulica 4, 1000 Ljubljana","locality":"Ljubljana","postcode":"1000","region":"Ljubljana"},"name":"Urban hotel","related_places":{},"timezone":"Europe/Ljubljana"},{"fsq_id":"537f2ed6498e80a0545021b9","categories":[{"id":19010,"name":"Bed and Breakfast","icon":{"prefix":"https://ss3.4sqi.net/img/categories_v2/travel/bedandbreakfast_","suffix":".png"}}],"chains":[],"distance":822,"geocodes":{"main":{"latitude":46.05037,"longitude":14.512197}},"link":"/v3/places/537f2ed6498e80a0545021b9","location":{"country":"SI","cross_street":"","formatted_address":"Ljubljana","locality":"Ljubljana","region":"Ljubljana"},"name":"Atticus B&B","related_places":{},"timezone":"Europe/Ljubljana"},{"fsq_id":"505e01f7e4b0b4345fde51b9","categories":[{"id":19014,"name":"Hotel","icon":{"prefix":"https://ss3.4sqi.net/img/categories_v2/travel/hotel_","suffix":".png"}}],"chains":[],"distance":563,"geocodes":{"main":{"latitude":46.05427,"longitude":14.519736}},"link":"/v3/places/505e01f7e4b0b4345fde51b9","location":{"address":"Njegoševa c. 6K","country":"SI","cross_street":"","formatted_address":"Njegoševa c. 6K, Ljubljana","locality":"Ljubljana","region":"Ljubljana"},"name":"Hotel Meksiko","related_places":{},"timezone":"Europe/Ljubljana"},{"fsq_id":"566757d1498ef7700635578a","categories":[{"id":13009,"name":"Cocktail Bar","icon":{"prefix":"https://ss3.4sqi.net/img/categories_v2/nightlife/cocktails_","suffix":".png"}}],"chains":[],"distance":882,"geocodes":{"main":{"latitude":46.053075,"longitude":14.504892}},"link":"/v3/places/566757d1498ef7700635578a","location":{"address":"Nazorjeva Ulica 6","country":"SI","cross_street":"","formatted_address":"Nazorjeva Ulica 6"},"name":"Shooters","related_places":{},"timezone":"Europe/Ljubljana"}],"context":{"geo_bounds":{"circle":{"center":{"latitude":46.05763,"longitude":14.514264},"radius":1000}}}}