{"results":[{"fsq_id":"52d0285d498e4d8a22623a55","categories":[{"id":13018,"name":"Pub","icon":{"prefix":"https://ss3.4sqi.net/img/categories_v2/nightlife/pub_","suffix":".png"}}],"chains":[],"distance":972,"geocodes":{"main":{"latitude":46.03987,"longitude":14.471786}},"link":"/v3/places/52d0285d498e4d8a22623a55","location":{"address":"Tržaška 118","country":"SI","cross_street":"","formatted_address":"Tržaška 118, Ljubljana","locality":"Ljubljana","region":"Ljubljana"},"name":"Champs Pub","related_places":{},"timezone":"Europe/Ljubljana"},{"fsq_id":"4c3a0d0a0a71c9b6ae8643c9","categories":[{"id":13003,"name":"Bar","icon":{"prefix":"https://ss3.4sqi.net/img/categories_v2/nightlife/pub_","suffix":".png"}}],"chains":[],"distance":560,"geocodes":{"main":{"latitude":46.041145,"longitude":14.465647}},"link":"/v3/places/4c3a0d0a0a71c9b6ae8643c9","location":{"address":"10B Cesta Dolomitskega Odreda","country":"SI","cross_street":"","formatted_address":"10B Cesta Dolomitskega Odreda, 1000 Ljubljana","locality":"Ljubljana","postcode":"1000","region":"Ljubljana"},"name":"Raca Bar","related_places":{},"timezone":"Europe/Ljubljana"},{"fsq_id":"556cd597498e31edb47e87d5","categories":[{"id":19011,"name":"Boarding House","icon":{"prefix":"https://ss3.4sqi.net/img/categories_v2/travel/hotel_","suffix":".png"}}],"chains":[],"distance":533,"geocodes":{"main":{"latitude":46.049423,"longitude":14.458059}},"link":"/v3/places/556cd597498e31edb47e87d5","location":{"address":"Na Tezi, 12","country":"SI","cross_street":"","formatted_address":"Na Tezi, 12, 1000 Ljubljana","locality":"Ljubljana","postcode":"1000","region":"Ljubljana"},"name":"JUT Homestay","related_places":{},"timezone":"Europe/Ljubljana"},{"fsq_id":"4f6857a0e4b04bea437fb87b","categories":[{"id":15031,"name":"Doctor's Office","icon":{"prefix":"https://ss3.4sqi.net/img/categories_v2/building/medical_doctorsoffice_","suffix":".png"}}],"chains":[],"distance":553,"geocodes":{"main":{"latitude":46.045954,"longitude":14.469443}},"link":"/v3/places/4f6857a0e4b04bea437fb87b","location":{"country":"SI","cross_street":"","formatted_address":""},"name":"Dr Sonja Ukmar, Ordinacija družinske medicine","related_places":{},"timezone":"Europe/Ljubljana"},{"fsq_id":"4e92cdc0b8f7cece22ec4757","categories":[{"id":13003,"name":"Bar","icon":{"prefix":"https://ss3.4sqi.net/img/categories_v2/nightlife/pub_","suffix":".png"}}],"chains":[],"distance":637,"geocodes":{"main":{"latitude":46.042444,"longitude":14.469173}},"link":"/v3/places/4e92cdc0b8f7cece22ec4757","location":{"address":"Žabarjeva 2","country":"SI","cross_street":"","formatted_address":"Žabarjeva 2"},"name":"Ana bar","related_places":{},"timezone":"Europe/Ljubljana"},{"fsq_id":"4dbf09e081545e1cc7c572bb","categories":[{"id":13003,"name":"Bar","icon":{"prefix":"https://ss3.4sqi.net/img/categories_v2/nightlife/pub_","suffix":".png"}}],"chains":[],"distance":666,"geocodes":{"main":{"latitude":46.040824,"longitude":14.467479}},"link":"/v3/places/4dbf09e081545e1cc7c572bb","location":{"address":"Cesta dolomitskega odreda 1","country":"SI","cross_street":"","formatted_address":"Cesta dolomitskega odreda 1, 1000 Ljubljana","locality":"Ljubljana","postcode":"1000","region":"Ljubljana"},"name":"Spica Bar","related_places":{},"timezone":"Europe/Ljubljana"},{"fsq_id":"5188bb4c498e1ae762656811","categories":[{"id":13003,"name":"Bar","icon":{"prefix":"https://ss3.4sqi.net/img/categories_v2/nightlife/pub_","suffix":".png"}}],"chains":[],"distance":714,"geocodes":{"main":{"latitude":46.048512,"longitude":14.454011}},"link":"/v3/places/5188bb4c498e1ae762656811","location":{"address":"Vrhovci XVII/2","country":"SI","cross_street":"","formatted_address":"Vrhovci XVII/2, Ljubljana","locality":"Ljubljana","region":"Ljubljana"},"name":"Bar 14","related_places":{},"timezone":"Europe/Ljubljana"},{"fsq_id":"504712f0e4b0f61f464e7e90","categories":[{"id":15031,"name":"Doctor's Office","icon":{"prefix":"https://ss3.4sqi.net/img/categories_v2/building/medical_doctorsoffice_","suffix":".png"}}],"chains":[],"distance":721,"geocodes":{"main":{"latitude":46.044594,"longitude":14.471512}},"link":"/v3/places/504712f0e4b0f61f464e7e90","location":{"country":"SI","cross_street":"","formatted_address":""},"name":"Rehabilitacijski center Hrastar","related_places":{},"timezone":"Europe/Ljubljana"},{"fsq_id":"4cbac86fbac9370407e7ed7c","categories":[{"id":13003,"name":"Bar","icon":{"prefix":"https://ss3.4sqi.net/img/categories_v2/nightlife/pub_","suffix":".png"}}],"chains":[],"distance":725,"geocodes":{"main":{"latitude":46.043367,"longitude":14.45345}},"link":"/v3/places/4cbac86fbac9370407e7ed7c","location":{"country":"SI","cross_street":"","formatted_address":""},"name":"Pri Možin","related_places":{},"timezone":"Europe/Ljubljana"},{"fsq_id":"50b91c91e4b0136726a532dd","categories":[{"id":13024,"name":"Whisky Bar","icon":{"prefix":"https://ss3.4sqi.net/img/categories_v2/nightlife/whiskey_","suffix":".png"}}],"chains":[],"distance":800,"geocodes":{"main":{"latitude":46.048022,"longitude":14.452504}},"link":"/v3/places/50b91c91e4b0136726a532dd","location":{"address":"Kolajbova 15","country":"SI","cross_street":"","formatted_address":"Kolajbova 15, 1000 Ljubljana","locality":"Ljubljana","postcode":"1000","region":"Ljubljana"},"name":"Klanci","related_places":{},"timezone":"Europe/Ljubljana"}],"context":{"geo_bounds":{"circle":{"center":{"latitude":46.045617,"longitude":14.462281},"radius":1000}}}}